{ "type": "FeatureCollection",

    "features": [
      { 
        "type": "Feature",
        "geometry": {
          "type": "Point", 
          "coordinates": [-75.134729, 39.974192]
          },
          "properties": {
            "name": "ArtWell",
            "address": "100 W Oxford St",
            "zip": "19122",
            "website": "http://www.theartwell.org/",
            "grantAmount": "11150",
            "orgBudget": "544015"
          }
        },
      { "type": "Feature",
        "geometry": {
          "type": "Point", 
          "coordinates": [-75.142764, 39.953009]
          },
          "properties": {
            "name": "Clay Studio",
            "address": "139 N 2nd St",
            "zip": "19106",
            "website": "https://www.theclaystudio.org/",
            "grantAmount": "15000",
            "orgBudget": "1809648"
          }
      },
      { "type": "Feature",
        "geometry": {
          "type": "Point", 
          "coordinates": [-75.110737, 39.980488]
          },
          "properties": {
            "name": "Kulu Mele African Dance and Drum Ensemble",
            "address": "2636 East Auburn Street",
            "zip": "19134",
            "website": "http://www.kulumele.org/",
            "grantAmount": "10603",
            "orgBudget": "246735"
          }
      },
      { "type": "Feature",
        "geometry": {
          "type": "Point", 
          "coordinates": [-75.183948, 39.951873]
          },
          "properties": {
            "name": "LiveConnections",
            "address": "3025 Walnut Street",
            "zip": "19104",
            "website": "http://www.liveconnections.org/",
            "grantAmount": "4114",
            "orgBudget": "196235"
          }
      },
      { "type": "Feature",
        "geometry": {
          "type": "Point", 
          "coordinates": [-75.165597, 39.946006]
          },
          "properties": {
            "name": "Philadelphia Arts in Education Partnership",
            "address": "320 S. Broad Street",
            "zip": "19102",
            "website": "http://www.paep.net/",
            "grantAmount": "11671",
            "orgBudget": "1177864"

          }
      },
      { "type": "Feature",
        "geometry": {
          "type": "Point", 
          "coordinates": [-75.159016, 39.957729]
          },
          "properties": {
            "name": "Philadelphia Young Playwrights",
            "address": "1219 Vine St",
            "zip": "19107",
            "website": "http://www.phillyyoungplaywrights.org/",
            "grantAmount": "11758",
            "orgBudget": "1017280"
          }
      },
      { "type": "Feature",
        "geometry": {
          "type": "Point", 
          "coordinates": [-75.211497, 39.956861]
          },
          "properties": {
            "name": "Play on, Philly!",
            "address": "4501 Chestnut St",
            "zip": "19139",
            "website": "http://www.playonphilly.org/",
            "grantAmount": "11759",
            "orgBudget": "896459"
          }
      },
      { "type": "Feature",
        "geometry": {
          "type": "Point", 
          "coordinates": [-75.166635, 39.937708]
          },
          "properties": {
            "name": "Rock School for Dance Education",
            "address": "1101 S Broad St",
            "zip": "19147",
            "website": "https://therockschool.org",
            "grantAmount": "3926",
            "orgBudget": "5579702"
          }
      },
       { "type": "Feature",
        "geometry": {
          "type": "Point", 
          "coordinates": [-75.154998, 39.939086]
          },
          "properties": {
            "name": "Samuel S. Fleisher Art Memorial",
            "address": "719 Catharine St",
            "zip": "19147",
            "website": "http://www.fleisher.org/",
            "grantAmount": "12495",
            "orgBudget": "2177558"
          }
      },
      { "type": "Feature",
        "geometry": {
          "type": "Point", 
          "coordinates": [-75.206735, 39.956102]
          },
          "properties": {
            "name": "Scribe Video Center",
            "address": "4212 Chestnut Street, 3rd Floor",
            "zip": "19104",
            "website": "http://www.scribe.org/",
            "grantAmount": "11350",
            "orgBudget": "387626"
          }
      },
      { "type": "Feature",
        "geometry": {
          "type": "Point", 
          "coordinates": [-75.168222, 39.948109]
          },
          "properties": {
            "name": "The Print Center",
            "address": "1614 Latimer St",
            "zip": "19103",
            "website": "http://www.printcenter.org/",
            "grantAmount": "12541",
            "orgBudget": "536651"
          }
      },

      { "type": "Feature",
        "geometry": {
          "type": "Point", 
          "coordinates": [-75.151894, 39.918644]
          },
          "properties": {
            "name": "11th Hour Theatre Company",
            "address": "2329 S 3rd St",
            "zip": "19148",
            "website": "http://www.11thhourtheatrecompany.org/",
            "grantAmount": "11730",
            "orgBudget": "205826"
          }
      },

      { "type": "Feature",
        "geometry": {
          "type": "Point", 
          "coordinates": [-75.151894, 39.918644]
          },
          "properties": {
            "name": "1812 Productions, Inc",
            "address": "2329 S 3rd St",
            "zip": "19148",
            "website": "http://www.1812productions.org/",
            "grantAmount": "14000",
            "orgBudget": "975549"
          }
      },

      { "type": "Feature",
        "geometry": {
          "type": "Point", 
          "coordinates": [-75.171205, 39.95709]
          },
          "properties": {
            "name": "Academy Of Natural Sciences",
            "address": "1900 Benjamin Franklin Pkwy",
            "zip": "19103",
            "website": "http://www.ansp.org/",
            "grantAmount": "12275",
            "orgBudget": "8834220"
          }
      },

      { "type": "Feature",
        "geometry": {
          "type": "Point", 
          "coordinates": [-75.173766, 39.947813]
          },
          "properties": {
            "name": "Academy of Vocal Arts",
            "address": "1920 Spruce St",
            "zip": "19103",
            "website": "http://www.avaopera.com/",
            "grantAmount": "13000",
            "orgBudget": "5908500"
          }
      },

      { "type": "Feature",
        "geometry": {
          "type": "Point", 
          "coordinates": [-75.224833, 39.938039]
          },
          "properties": {
            "name": "African Cultural Alliance of North Am.",
            "address": "5530 Chester Ave",
            "zip": "19143",
            "website": "http://acanaus.org/",
            "grantAmount": "9166",
            "orgBudget": "660095"
          }
      },

      { "type": "Feature",
        "geometry": {
          "type": "Point", 
          "coordinates": [-75.21521, 39.949496]
          },
          "properties": {
            "name": "Al-Bustan Seeds of Culture",
            "address": "526 South 46th Street",
            "zip": "19143",
            "website": "http://www.albustanseeds.org/",
            "grantAmount": "12296",
            "orgBudget": "619097"
          }
      },

      { "type": "Feature",
        "geometry": {
          "type": "Point", 
          "coordinates": [-75.203075, 40.052006]
          },
          "properties": {
            "name": "Allens Lane Art Center Association",
            "address": "601 W Allens Ln",
            "zip": "19119",
            "website": "https://www.allenslane.org/",
            "grantAmount": "11102",
            "orgBudget": "329954"
          }
      },

      { "type": "Feature",
        "geometry": {
          "type": "Point", 
          "coordinates": [-75.203075, 40.052006]
          },
          "properties": {
            "name": "Allens Lane Art Center Association",
            "address": "601 W Allens Ln",
            "zip": "19119",
            "website": "https://www.allenslane.org/",
            "grantAmount": "11102",
            "orgBudget": "329954"
          }
      },

       { "type": "Feature",
        "geometry": {
          "type": "Point", 
          "coordinates": [-75.145954, 39.950909]
          },
          "properties": {
            "name": "American Composers Forum Phila Chapter",
            "address": "20 N 3rd St #201",
            "zip": "19106",
            "website": "http://www.acfphiladelphia.org/",
            "grantAmount": "11748",
            "orgBudget": "149985"
          }
      },

      { "type": "Feature",
        "geometry": {
          "type": "Point", 
          "coordinates": [-75.1424, 39.952677]
          },
          "properties": {
            "name": "American Historical Theatre",
            "address": "124 Elfreth's Alley",
            "zip": "19106",
            "website": "http://www.ahtheatre.org/",
            "grantAmount": "2239",
            "orgBudget": "321403"
          }
      },

      { "type": "Feature",
        "geometry": {
          "type": "Point", 
          "coordinates": [-75.149085, 39.948363]
          },
          "properties": {
            "name": "American Philosophical Society",
            "address": "105 S 5th St",
            "zip": "19106",
            "website": "http://www.amphilsoc.org/",
            "grantAmount": "3977",
            "orgBudget": "17265388"
          }
      },

      { "type": "Feature",
        "geometry": {
          "type": "Point", 
          "coordinates": [-75.180993, 39.905972]
          },
          "properties": {
            "name": "American Swedish Historical Museum",
            "address": "1900 Pattison Ave",
            "zip": "19145",
            "website": "http://www.americanswedish.org/",
            "grantAmount": "10417",
            "orgBudget": "675156"
          }
      },

      { "type": "Feature",
        "geometry": {
          "type": "Point", 
          "coordinates": [-75.16523, 39.955885]
          },
          "properties": {
            "name": "Anna Crusis Womens Choir",
            "address": "1501 Cherry St",
            "zip": "19102",
            "website": "http://www.annacrusis.com/",
            "grantAmount": "8958",
            "orgBudget": "35797"
          }
      },

      { "type": "Feature",
        "geometry": {
          "type": "Point", 
          "coordinates": [-75.151614, 39.92292]
          },
          "properties": {
            "name": "Anne-Marie Mulgrew & Dancers Co.",
            "address": "331 Emily St",
            "zip": "19148",
            "website": "http://www.annemariemulgrewdancersco.org/",
            "grantAmount": "8120",
            "orgBudget": "25000"
          }
      },

      { "type": "Feature",
        "geometry": {
          "type": "Point", 
          "coordinates": [-75.196556, 39.95301]
          },
          "properties": {
            "name": "Annenberg Center for the Performing Arts",
            "address": "3680 Walnut Street",
            "zip": "19104",
            "website": "http://www.annenbergcenter.org",
            "grantAmount": "10504",
            "orgBudget": "1500000"
          }
      },

      { "type": "Feature",
        "geometry": {
          "type": "Point", 
          "coordinates": [-75.215581, 39.944627]
          },
          "properties": {
            "name": "Applied Mechanics",
            "address": "4804 Chester Ave",
            "zip": "19143",
            "website": "http://www.appliedmechanics.us/",
            "grantAmount": "3609",
            "orgBudget": "25000"
          }
      },

      { "type": "Feature",
        "geometry": {
          "type": "Point", 
          "coordinates": [-75.143946, 39.951203]
          },
          "properties": {
            "name": "Arden Theater",
            "address": "40 N 2nd St",
            "zip": "19106",
            "website": "http://www.ardentheatre.org",
            "grantAmount": "14377",
            "orgBudget": "8912247"
          }
      },

      { "type": "Feature",
        "geometry": {
          "type": "Point", 
          "coordinates": [-75.200336, 39.961375]
          },
          "properties": {
            "name": "Ars Nova Workshop, Inc.",
            "address": "3909 Warren Street",
            "zip": "19104",
            "website": "http://www.arsnovaworkshop.org/",
            "grantAmount": "9620",
            "orgBudget": "234686"
          }
      },


      { "type": "Feature",
        "geometry": {
          "type": "Point", 
          "coordinates": [-75.1534, 39.962086]
          },
          "properties": {
            "name": "Art Sphere",
            "address": "915 Spring Garden Street #401",
            "zip": "19123",
            "website": "http://www.artsphere.org",
            "grantAmount": "3390",
            "orgBudget": "8636"
          }
      },

      { "type": "Feature",
        "geometry": {
          "type": "Point", 
          "coordinates": [-75.192731, 39.951592]
          },
          "properties": {
            "name": "Arthur Ross Gallery",
            "address": "220 South 34th Street",
            "zip": "19104",
            "website": "http://www.arthurrossgallery.org/",
            "grantAmount": "8342",
            "orgBudget": "1500000"
          }
      },

      { "type": "Feature",
        "geometry": {
          "type": "Point", 
          "coordinates": [-75.134259, 40.016181]
          },
          "properties": {
            "name": "Artistas y Musicos Latino Americanos",
            "address": "4261 N. 5th St, 2nd Floor",
            "zip": "19140",
            "website": "http://www.amla.org/",
            "grantAmount": "12134",
            "orgBudget": "236936"
          }
      },

       { "type": "Feature",
        "geometry": {
          "type": "Point", 
          "coordinates": [-75.16523, 39.955885]
          },
          "properties": {
            "name": "Art-Reach",
            "address": "1501 Cherry Street",
            "zip": "19102",
            "website": "http://www.art-reach.org/",
            "grantAmount": "10995",
            "orgBudget": "373837"
          }
      },

      { "type": "Feature",
        "geometry": {
          "type": "Point", 
          "coordinates": [-75.156098, 39.959166]
          },
          "properties": {
            "name": "Asian Americans United",
            "address": "1023 Callowhill St",
            "zip": "19123",
            "website": "http://www.aaunited.org/",
            "grantAmount": "9692",
            "orgBudget": "196309"
          }
      },

      { "type": "Feature",
        "geometry": {
          "type": "Point", 
          "coordinates": [-75.159245, 39.958008]
          },
          "properties": {
            "name": "Asian Arts Initiative",
            "address": "1219 Vine St",
            "zip": "19107",
            "website": "http://www.asianartsinitiative.org",
            "grantAmount": "11071",
            "orgBudget": "1138929"
          }
      },

      { "type": "Feature",
        "geometry": {
          "type": "Point", 
          "coordinates": [-75.167241, 39.949565]
          },
          "properties": {
            "name": "Association for Public Art",
            "address": "1528 Walnut St #1000",
            "zip": "19102",
            "website": "http://www.associationforpublicart.org/",
            "grantAmount": "11747",
            "orgBudget": "2493259"
          }
      },

      { "type": "Feature",
        "geometry": {
          "type": "Point", 
          "coordinates": [-75.165173, 39.948441]
          },
          "properties": {
            "name": "Astral Artists",
            "address": "230 S Broad St # 300",
            "zip": "19102",
            "website": "http://www.astralartists.org/",
            "grantAmount": "13000",
            "orgBudget": "936352"
          }
      },

      { "type": "Feature",
        "geometry": {
          "type": "Point", 
          "coordinates": [-75.150872, 39.946887]
          },
          "properties": {
            "name": "Athenaeum of Philadelphia",
            "address": "219 S 6th St",
            "zip": "19106",
            "website": "http://www.philaathenaeum.org/",
            "grantAmount": "8959",
            "orgBudget": "1652869"
          }
      }

    ]
}